{"business_id": "gnKjwL_1w79qoiV3IC_xQQ", "name": "Musashi Japanese Restaurant", "address": "10110 Johnston Rd, Ste 15", "city": "Charlotte", "state": "NC", "postal_code": "28210", "latitude": 35.092564, "longitude": -80.859132, "stars": 4.0, "review_count": 170, "is_open": 1, "attributes": {"GoodForKids": "True", "NoiseLevel": "average", "RestaurantsDelivery": "False", "GoodForMeal": {"dessert": "False", "latenight": "False", "lunch": "True", "dinner": "True", "brunch": "False", "breakfast": "False"}, "Alcohol": "beer_and_wine", "Caters": "False", "WiFi": "no", "RestaurantsTakeOut": "True", "BusinessAcceptsCreditCards": "True", "Ambience": {"romantic": "False", "intimate": "False", "touristy": "False", "hipster": "False", "divey": "False", "classy": "False", "trendy": "False", "upscale": "False", "casual": "True"}, "BusinessParking": {"garage": "False", "street": "False", "validated": "False", "lot": "True", "valet": "False"}, "RestaurantsTableService": "True", "RestaurantsGoodForGroups": "True", "OutdoorSeating": "False", "HasTV": "True", "BikeParking": "True", "RestaurantsReservations": "True", "RestaurantsPriceRange2": "2", "RestaurantsAttire": "casual"}, "categories": "Sushi Bars, Restaurants, Japanese", "hours": {"Monday": "17:30-21:30", "Wednesday": "17:30-21:30", "Thursday": "17:30-21:30", "Friday": "17:30-22:0", "Saturday": "17:30-22:0", "Sunday": "17:30-21:0"}}
{"business_id": "Y6iyemLX_oylRpnr38vgMA", "name": "Vita Bella Fine Day Spa", "address": "5940 W Union Hills Dr", "city": "Glendale", "state": "AZ", "postal_code": "85308", "latitude": 33.6548146, "longitude": -112.1885676, "stars": 5.0, "review_count": 8, "is_open": 0, "attributes": {"RestaurantsPriceRange2": "2", "ByAppointmentOnly": "True", "BusinessParking": {"garage": "False", "street": "False", "validated": "False", "lot": "True", "valet": "False"}, "BusinessAcceptsCreditCards": "True", "BikeParking": "False"}, "categories": "Nail Salons, Beauty & Spas, Day Spas", "hours": {"Tuesday": "12:0-18:0", "Wednesday": "10:0-18:0", "Thursday": "12:0-18:0", "Friday": "10:0-17:0", "Saturday": "10:0-14:0"}}
{"business_id": "PZ-LZzSlhSe9utkQYU8pFg", "name": "Carluccio's Tivoli Gardens", "address": "1775 E Tropicana Ave, Ste 29", "city": "Las Vegas", "state": "NV", "postal_code": "89119", "latitude": 36.1000163, "longitude": -115.1285285, "stars": 4.0, "review_count": 40, "is_open": 0, "attributes": {"OutdoorSeating": "False", "BusinessAcceptsCreditCards": "True", "RestaurantsDelivery": "False", "RestaurantsReservations": "True", "RestaurantsAttire": "casual", "Ambience": {"romantic": "True", "intimate": "False", "touristy": "False", "hipster": "False", "divey": "False", "classy": "True", "trendy": "False", "upscale": "False", "casual": "False"}, "HasTV": "False", "BYOBCorkage": "no", "NoiseLevel": "quiet", "RestaurantsTakeOut": "True", "RestaurantsPriceRange2": "2", "RestaurantsGoodForGroups": "True", "WiFi": "no", "Caters": "True", "GoodForKids": "True", "Alcohol": "full_bar", "BusinessParking": {"garage": "False", "street": "False", "validated": "False", "lot": "True", "valet": "False"}}, "categories": "Restaurants, Italian", "hours": {}}
{"business_id": "n2kOsDur7tCLygSa87glJQ", "name": "A Woman's Place", "address": "2789 Sunridge Heights Pkwy, Ste 100", "city": "Henderson", "state": "NV", "postal_code": "89052", "latitude": 35.9911594, "longitude": -115.1084553, "stars": 2.5, "review_count": 13, "is_open": 0, "attributes": {"ByAppointmentOnly": "True"}, "categories": "Medical Centers, Doctors, Obstetricians & Gynecologists, Health & Medical", "hours": {}}
{"business_id": "teknANRU8ZKnwdIHWYyd8Q", "name": "Key To Healing Massage", "address": "14202 N Scottsdale Rd", "city": "Scottsdale", "state": "AZ", "postal_code": "85254", "latitude": 33.6168384583, "longitude": -111.9273103315, "stars": 5.0, "review_count": 10, "is_open": 0, "attributes": {"ByAppointmentOnly": "False", "BusinessAcceptsCreditCards": "True"}, "categories": "Massage Therapy, Massage, Health & Medical, Beauty & Spas", "hours": {"Tuesday": "10:0-18:0", "Wednesday": "10:0-18:0", "Thursday": "10:0-18:0", "Friday": "10:0-18:0", "Saturday": "10:0-16:0"}}
{"business_id": "q2KtxnPa6rPSpAlMbg9l8g", "name": "Nothing Bundt Cakes", "address": "17025 N Scottsdale Rd, Ste 110", "city": "Scottsdale", "state": "AZ", "postal_code": "85255", "latitude": 33.6403078149, "longitude": -111.9245281399, "stars": 4.0, "review_count": 174, "is_open": 1, "attributes": {"BikeParking": "True", "BusinessParking": {"garage": "False", "street": "False", "validated": "False", "lot": "True", "valet": "False"}, "BusinessAcceptsCreditCards": "True", "RestaurantsPriceRange2": "2", "RestaurantsTakeOut": "True", "RestaurantsDelivery": "False", "Caters": "True"}, "categories": "Desserts, Food, Cupcakes, Bakeries", "hours": {"Monday": "9:0-18:0", "Tuesday": "9:0-18:0", "Wednesday": "9:0-18:0", "Thursday": "9:0-18:0", "Friday": "9:0-18:0", "Saturday": "9:0-18:0", "Sunday": "10:0-15:0"}}
{"business_id": "qac28VmbQ7OrTMk-RCl7Yg", "name": "Salon Glow", "address": "4830 N Litchfield Rd, Ste 105", "city": "Litchfield Park", "state": "AZ", "postal_code": "85340", "latitude": 33.5063725, "longitude": -112.3587447, "stars": 4.0, "review_count": 10, "is_open": 0, "attributes": {"GoodForKids": "False", "RestaurantsPriceRange2": "2", "ByAppointmentOnly": "False", "BusinessAcceptsCreditCards": "True", "BikeParking": "True", "BusinessParking": {"garage": "False", "street": "False", "validated": "False", "lot": "True", "valet": "False"}}, "categories": "Beauty & Spas, Skin Care, Tanning Beds, Hair Salons, Tanning", "hours": {"Monday": "9:0-20:0", "Tuesday": "9:0-20:0", "Wednesday": "9:0-20:0", "Thursday": "9:0-20:0", "Friday": "9:0-20:0", "Saturday": "9:0-18:0"}}
{"business_id": "dQj5DLZjeDK3KFysh1SYOQ", "name": "Apteka", "address": "4606 Penn Ave", "city": "Pittsburgh", "state": "PA", "postal_code": "15224", "latitude": 40.4656937, "longitude": -79.9493238, "stars": 4.5, "review_count": 242, "is_open": 1, "attributes": {"CoatCheck": "False", "BusinessParking": {"garage": "False", "street": "True", "validated": "False", "lot": "False", "valet": "False"}, "HappyHour": "True", "Smoking": "no", "WiFi": "free", "RestaurantsTableService": "False", "RestaurantsDelivery": "False", "Alcohol": "full_bar", "RestaurantsPriceRange2": "2", "HasTV": "False", "Caters": "True", "Music": {"dj": "False", "background_music": "True", "jukebox": "False", "live": "False", "video": "False", "karaoke": "False"}, "RestaurantsTakeOut": "True", "BestNights": {"monday": "False", "tuesday": "False", "friday": "True", "wednesday": "True", "thursday": "True", "sunday": "False", "saturday": "False"}, "WheelchairAccessible": "True", "BusinessAcceptsCreditCards": "True", "GoodForKids": "False", "BusinessAcceptsBitcoin": "False", "GoodForDancing": "False", "BikeParking": "True", "RestaurantsAttire": "casual", "RestaurantsGoodForGroups": "True", "NoiseLevel": "average", "RestaurantsReservations": "False", "Ambience": {"romantic": "False", "intimate": "False", "classy": "False", "hipster": "True", "divey": "False", "touristy": "False", "trendy": "False", "upscale": "False", "casual": "True"}, "GoodForMeal": {"dessert": "False", "latenight": "False", "lunch": "False", "dinner": "True", "brunch": "False", "breakfast": "False"}, "OutdoorSeating": "False"}, "categories": "Nightlife, Bars, Polish, Modern European, Restaurants, Vegan", "hours": {"Wednesday": "17:0-0:0", "Thursday": "17:0-0:0", "Friday": "17:0-0:0", "Saturday": "17:0-0:0", "Sunday": "17:0-0:0"}}
{"business_id": "v-scZMU6jhnmV955RSzGJw", "name": "No. 1 Sushi Sushi", "address": "436 Market St", "city": "Pittsburgh", "state": "PA", "postal_code": "15222", "latitude": 40.441062, "longitude": -80.002126, "stars": 4.5, "review_count": 106, "is_open": 1, "attributes": {"OutdoorSeating": "False", "HasTV": "True", "NoiseLevel": "average", "BusinessAcceptsCreditCards": "True", "RestaurantsTableService": "True", "BusinessParking": {"garage": "False", "street": "True", "validated": "False", "lot": "False", "valet": "False"}, "RestaurantsDelivery": "False", "WiFi": "no", "RestaurantsReservations": "False", "GoodForMeal": {"dessert": "False", "latenight": "False", "lunch": "True", "dinner": "False", "brunch": "False", "breakfast": "False"}, "RestaurantsTakeOut": "True", "Alcohol": "none", "RestaurantsGoodForGroups": "False", "BikeParking": "True", "WheelchairAccessible": "True", "Caters": "True", "Ambience": {"touristy": "False", "hipster": "False", "romantic": "False", "divey": "False", "intimate": "False", "trendy": "False", "upscale": "False", "classy": "False", "casual": "True"}, "RestaurantsAttire": "casual", "RestaurantsPriceRange2": "2", "GoodForKids": "True"}, "categories": "Japanese, Sushi Bars, Restaurants", "hours": {"Monday": "11:0-20:0", "Tuesday": "11:0-20:0", "Wednesday": "11:0-20:0", "Thursday": "11:0-20:0", "Friday": "11:0-20:0"}}
{"business_id": "kANF0dbeoW34s2vwh6Umfw", "name": "Dairy Queen", "address": "6125 Spring Mountain Rd", "city": "Las Vegas", "state": "NV", "postal_code": "89146", "latitude": 36.1250311, "longitude": -115.2256202, "stars": 2.0, "review_count": 33, "is_open": 0, "attributes": {"RestaurantsPriceRange2": "1", "Ambience": {"romantic": "False", "intimate": "False", "classy": "False", "hipster": "False", "divey": "False", "touristy": "False", "trendy": "False", "upscale": "False", "casual": "True"}, "RestaurantsGoodForGroups": "True", "RestaurantsTakeOut": "True", "NoiseLevel": "average", "BusinessAcceptsCreditCards": "True", "RestaurantsAttire": "casual", "BikeParking": "True", "OutdoorSeating": "False", "HasTV": "False", "RestaurantsReservations": "False", "BusinessParking": {"garage": "False", "street": "False", "validated": "False", "lot": "True", "valet": "False"}, "RestaurantsDelivery": "False", "WiFi": "no", "GoodForKids": "True", "Alcohol": "none", "Caters": "False"}, "categories": "Fast Food, Food, Restaurants, Ice Cream & Frozen Yogurt", "hours": {}}